{
  "type": "FeatureCollection",
  "features": [
    {
      "type": "Feature",
      "properties": { "COUNTRY_NAME": "Albania" },
      "geometry": { "type": "Point", "coordinates": [20.1683, 41.1533] }
    },
    {
      "type": "Feature",
      "properties": { "COUNTRY_NAME": "Andorra" },
      "geometry": { "type": "Point", "coordinates": [1.5218, 42.5063] }
    },
    {
      "type": "Feature",
      "properties": { "COUNTRY_NAME": "Armenia" },
      "geometry": { "type": "Point", "coordinates": [45.0382, 40.0691] }
    },
    {
      "type": "Feature",
      "properties": { "COUNTRY_NAME": "Austria" },
      "geometry": { "type": "Point", "coordinates": [14.5501, 47.5162] }
    },
    {
      "type": "Feature",
      "properties": { "COUNTRY_NAME": "Azerbaijan" },
      "geometry": { "type": "Point", "coordinates": [47.5769, 40.1431] }
    },
    {
      "type": "Feature",
      "properties": { "COUNTRY_NAME": "Belarus" },
      "geometry": { "type": "Point", "coordinates": [27.9534, 53.7098] }
    },
    {
      "type": "Feature",
      "properties": { "COUNTRY_NAME": "Belgium" },
      "geometry": { "type": "Point", "coordinates": [4.4699, 50.5039] }
    },
    {
      "type": "Feature",
      "properties": { "COUNTRY_NAME": "Bosnia and Herzegovina" },
      "geometry": { "type": "Point", "coordinates": [17.6791, 43.9159] }
    },
    {
      "type": "Feature",
      "properties": { "COUNTRY_NAME": "Bulgaria" },
      "geometry": { "type": "Point", "coordinates": [25.4858, 42.7339] }
    },
    {
      "type": "Feature",
      "properties": { "COUNTRY_NAME": "Croatia" },
      "geometry": { "type": "Point", "coordinates": [15.2, 45.1] }
    },
    {
      "type": "Feature",
      "properties": { "COUNTRY_NAME": "Cyprus" },
      "geometry": { "type": "Point", "coordinates": [33.4299, 35.1264] }
    },
    {
      "type": "Feature",
      "properties": { "COUNTRY_NAME": "Czech Republic" },
      "geometry": { "type": "Point", "coordinates": [15.472962, 49.817492] }
    },
    {
      "type": "Feature",
      "properties": { "COUNTRY_NAME": "Denmark" },
      "geometry": { "type": "Point", "coordinates": [9.5018, 56.2639] }
    },
    {
      "type": "Feature",
      "properties": { "COUNTRY_NAME": "Estonia" },
      "geometry": { "type": "Point", "coordinates": [25.0136, 58.5953] }
    },
    {
      "type": "Feature",
      "properties": { "COUNTRY_NAME": "Finland" },
      "geometry": { "type": "Point", "coordinates": [25.7482, 61.9241] }
    },
    {
      "type": "Feature",
      "properties": { "COUNTRY_NAME": "France" },
      "geometry": { "type": "Point", "coordinates": [2.2137, 46.6034] }
    },
    {
      "type": "Feature",
      "properties": { "COUNTRY_NAME": "Georgia" },
      "geometry": { "type": "Point", "coordinates": [43.3569, 42.3154] }
    },
    {
      "type": "Feature",
      "properties": { "COUNTRY_NAME": "Germany" },
      "geometry": { "type": "Point", "coordinates": [10.4515, 51.1657] }
    },
    {
      "type": "Feature",
      "properties": { "COUNTRY_NAME": "Greece" },
      "geometry": { "type": "Point", "coordinates": [21.8243, 39.0742] }
    },
    {
      "type": "Feature",
      "properties": { "COUNTRY_NAME": "Hungary" },
      "geometry": { "type": "Point", "coordinates": [19.5033, 47.1625] }
    },
    {
      "type": "Feature",
      "properties": { "COUNTRY_NAME": "Iceland" },
      "geometry": { "type": "Point", "coordinates": [-19.0208, 64.9631] }
    },
    {
      "type": "Feature",
      "properties": { "COUNTRY_NAME": "Ireland" },
      "geometry": { "type": "Point", "coordinates": [-8.2439, 53.4129] }
    },
    {
      "type": "Feature",
      "properties": { "COUNTRY_NAME": "Italy" },
      "geometry": { "type": "Point", "coordinates": [12.5674, 41.8719] }
    },
    {
      "type": "Feature",
      "properties": { "COUNTRY_NAME": "Kazakhstan" },
      "geometry": { "type": "Point", "coordinates": [66.9237, 48.0196] }
    },
    {
      "type": "Feature",
      "properties": { "COUNTRY_NAME": "Kosovo" },
      "geometry": { "type": "Point", "coordinates": [20.902977, 42.602636] }
    },
    {
      "type": "Feature",
      "properties": { "COUNTRY_NAME": "Latvia" },
      "geometry": { "type": "Point", "coordinates": [24.6032, 56.8796] }
    },
    {
      "type": "Feature",
      "properties": { "COUNTRY_NAME": "Liechtenstein" },
      "geometry": { "type": "Point", "coordinates": [9.5554, 47.166] }
    },
    {
      "type": "Feature",
      "properties": { "COUNTRY_NAME": "Lithuania" },
      "geometry": { "type": "Point", "coordinates": [23.8813, 55.1694] }
    },
    {
      "type": "Feature",
      "properties": { "COUNTRY_NAME": "Luxembourg" },
      "geometry": { "type": "Point", "coordinates": [6.1296, 49.8153] }
    },
    {
      "type": "Feature",
      "properties": { "COUNTRY_NAME": "Malta" },
      "geometry": { "type": "Point", "coordinates": [14.3754, 35.9375] }
    },
    {
      "type": "Feature",
      "properties": { "COUNTRY_NAME": "Moldova" },
      "geometry": { "type": "Point", "coordinates": [28.3699, 47.4116] }
    },
    {
      "type": "Feature",
      "properties": { "COUNTRY_NAME": "Monaco" },
      "geometry": { "type": "Point", "coordinates": [7.4128, 43.7503] }
    },
    {
      "type": "Feature",
      "properties": { "COUNTRY_NAME": "Montenegro" },
      "geometry": { "type": "Point", "coordinates": [19.3744, 42.7087] }
    },
    {
      "type": "Feature",
      "properties": { "COUNTRY_NAME": "Netherlands" },
      "geometry": { "type": "Point", "coordinates": [5.2913, 52.1326] }
    },
    {
      "type": "Feature",
      "properties": { "COUNTRY_NAME": "North Macedonia" },
      "geometry": { "type": "Point", "coordinates": [21.7453, 41.6086] }
    },
    {
      "type": "Feature",
      "properties": { "COUNTRY_NAME": "Norway" },
      "geometry": { "type": "Point", "coordinates": [8.4689, 60.472] }
    },
    {
      "type": "Feature",
      "properties": { "COUNTRY_NAME": "Poland" },
      "geometry": { "type": "Point", "coordinates": [19.1451, 51.9194] }
    },
    {
      "type": "Feature",
      "properties": { "COUNTRY_NAME": "Portugal" },
      "geometry": {
        "type": "Point",
        "coordinates": [
          -8.2245,

          39.3999
        ]
      }
    },
    {
      "type": "Feature",
      "properties": { "COUNTRY_NAME": "Romania" },
      "geometry": { "type": "Point", "coordinates": [24.9668, 45.9432] }
    },
    {
      "type": "Feature",
      "properties": { "COUNTRY_NAME": "Russia" },
      "geometry": { "type": "Point", "coordinates": [105.3188, 61.524] }
    },
    {
      "type": "Feature",
      "properties": { "COUNTRY_NAME": "San Marino" },
      "geometry": { "type": "Point", "coordinates": [12.4578, 43.9424] }
    },
    {
      "type": "Feature",
      "properties": { "COUNTRY_NAME": "Serbia" },
      "geometry": { "type": "Point", "coordinates": [21.0059, 44.0165] }
    },
    {
      "type": "Feature",
      "properties": { "COUNTRY_NAME": "Slovakia" },
      "geometry": { "type": "Point", "coordinates": [19.699, 48.669] }
    },
    {
      "type": "Feature",
      "properties": { "COUNTRY_NAME": "Slovenia" },
      "geometry": { "type": "Point", "coordinates": [14.9955, 46.1512] }
    },
    {
      "type": "Feature",
      "properties": { "COUNTRY_NAME": "Spain" },
      "geometry": { "type": "Point", "coordinates": [-3.7492, 40.4637] }
    },
    {
      "type": "Feature",
      "properties": { "COUNTRY_NAME": "Sweden" },
      "geometry": { "type": "Point", "coordinates": [18.6435, 60.1282] }
    },
    {
      "type": "Feature",
      "properties": { "COUNTRY_NAME": "Switzerland" },
      "geometry": { "type": "Point", "coordinates": [8.2275, 46.8182] }
    },
    {
      "type": "Feature",
      "properties": { "COUNTRY_NAME": "Turkey" },
      "geometry": { "type": "Point", "coordinates": [35.2433, 38.9637] }
    },
    {
      "type": "Feature",
      "properties": { "COUNTRY_NAME": "Ukraine" },
      "geometry": { "type": "Point", "coordinates": [31.1656, 48.3794] }
    },
    {
      "type": "Feature",
      "properties": { "COUNTRY_NAME": "United Kingdom" },
      "geometry": { "type": "Point", "coordinates": [-3.436, 55.3781] }
    },
    {
      "type": "Feature",
      "properties": { "COUNTRY_NAME": "Vatican City" },
      "geometry": { "type": "Point", "coordinates": [12.4534, 41.9029] }
    }
  ]
}
